{
    "msg": "",
    "code": 0,
    "count": 5,
    "data": [
      {
        "Id": 5,
        "Name": "龙门石刻",
        "Introduce":"",
        "Location": "城东南角",
        "EyeCount": 33,
        "SubTime": "2020/03/10 15:03:17",
        "Longitude": "116.461057",
        "Latitude": "37.121359",
        "Image": ""
      },
      {
        "Id": 4,
        "Name": "千佛塔",
        "Location": "平原城北2公里处",
        "EyeCount": 50,
        "SubTime": "2020/03/10 10:09:00",
        "Longitude": "116.443891",
        "Latitude": "37.205180",
        "Image": ""
      },
      {
        "Id": 3,
        "Name": "三国文化广场",
        "Introduce": "三国文化广场占地18．3万平方米，其中水面10万平方米，蓄水量45万立方米...",
        "Location": "平原县",
        "EyeCount": 80,
        "SubTime": "2020/03/07 09:12:16",
        "Longitude": "116.358509",
        "Latitude": "37.176925",
        "Image": "/UploadImage/2020/4/4/7975fe05ec422f72d9714605bf5fb692.png"
      },
      {
        "Id": 2,
        "Name": "康熙探花花园",
        "Location": "平原县",
        "Introduce": "康熙探花花园景区，是清朝康熙年间探花董讷的故乡。在这里有近千亩湿地...",
        "EyeCount": 88,
        "SubTime": "2020/03/07 08:03:10",
        "Longitude": "116.301069",
        "Latitude": "37.141607",
        "Image": "/UploadImage/2020/4/4/3ff7010b10ebcffe6131568024791d89.jpeg"
      },
      {
        "Id": 1,
        "Name": "小康村",
        "Location": "平原县",
        "EyeCount": 102,
        "SubTime": "2020/03/05 13:14:26",
        "Longitude": "116.305875",
        "Latitude": "37.160490",
        "Image": ""
      }
    ]
}